{
  "id": "course-major-aquariums-japan-001",
  "courseType": "stamp_rally",
  "title": "全国の主要水族館",
  "summary": "日本全国の主要水族館を巡るコースです。全49館収録。 参考：公益社団法人日本動物園水族館協会（JAZA）",
  "source": "bundled",
  "isUserCreated": false,
  "version": 1,
  "recognitionRadiusMeters": 500.0,
  "detailUrl": null,
  "coverImageUrl": "https://kokokita-app.irodoriq.com/course/images/course/course-major-aquariums-japan-001.jpg",
  "categories": [
    "art_entertainment"
  ],
  "spots": [
    {
      "spotId": "aq-jp-001",
      "name": "おたる水族館",
      "address": "〒047-0047 北海道小樽市祝津３丁目３０３",
      "latitude": 43.2369305,
      "longitude": 141.0119143,
      "spotDescription": "多様な海の生き物を展示する水族館。ペンギン、イルカ、アザラシなどのショーのほか、各種催し物も開催。",
      "orderIndex": 0,
      "recognitionRadiusMeters": null,
      "googlePlaceId": "ChIJhSqlPAUeC18RURQ2LaIFswE"
    },
    {
      "spotId": "aq-jp-002",
      "name": "新さっぽろサンピアザ水族館",
      "address": "〒004-0052 北海道札幌市厚別区厚別中央２条５丁目７",
      "latitude": 43.0368399,
      "longitude": 141.4717105,
      "spotDescription": "海水魚、アザラシ、ペンギンに会える都市型水族館。生き物たちとのふれあいタイムがあり、ショーも開催。",
      "orderIndex": 1,
      "recognitionRadiusMeters": null,
      "googlePlaceId": "ChIJQQqA3GErC18RWHPodrXm7HE"
    },
    {
      "spotId": "aq-jp-003",
      "name": "登別マリンパークニクス",
      "address": "〒059-0492 北海道登別市登別東町１丁目２２",
      "latitude": 42.4549885,
      "longitude": 141.1821301,
      "spotDescription": "海の生き物に会える水族館。水底トンネル、ペンギンのパレード、イルカのショーも見られる。",
      "orderIndex": 2,
      "recognitionRadiusMeters": null,
      "googlePlaceId": "ChIJL-GVrHdkdV8RhNUr32_nD3U"
    },
    {
      "spotId": "aq-jp-004",
      "name": "サケのふるさと 千歳水族館",
      "address": "〒066-0028 北海道千歳市花園２丁目４−３１２",
      "latitude": 42.8327899,
      "longitude": 141.6591892,
      "spotDescription": "千歳川の川岸にある小さくモダンな水族館。サケなどの淡水魚が見られる。",
      "orderIndex": 3,
      "recognitionRadiusMeters": null,
      "googlePlaceId": "ChIJeYWnJFLfdF8RdY5PEshZrYQ"
    },
    {
      "spotId": "aq-jp-005",
      "name": "AOAO SAPPORO",
      "address": "〒060-0062 北海道札幌市中央区南２条西３丁目２０ moyuk SAPPORO 4階",
      "latitude": 43.0575648,
      "longitude": 141.3531685,
      "spotDescription": null,
      "orderIndex": 4,
      "recognitionRadiusMeters": null,
      "googlePlaceId": "ChIJncnyR6QpC18RUMsCdPtRDb4"
    },
    {
      "spotId": "aq-jp-006",
      "name": "男鹿水族館GAO",
      "address": "〒010-0673 秋田県男鹿市戸賀塩浜壷ケ沢９３",
      "latitude": 39.942178,
      "longitude": 139.70459,
      "spotDescription": "大型水族館。ゴマフアザラシ、ペンギン、ホッキョクグマのほか、珍しいハタハタを見ることができる。",
      "orderIndex": 5,
      "recognitionRadiusMeters": null,
      "googlePlaceId": "ChIJXUWA6cw9kF8Ri9woLaQ6suI"
    },
    {
      "spotId": "aq-jp-007",
      "name": "鶴岡市立加茂水族館",
      "address": "〒997-1206 山形県鶴岡市今泉大久保６５７−１",
      "latitude": 38.7616566,
      "longitude": 139.7246678,
      "spotDescription": "ライトアップした水槽で、色とりどりに輝く多種多様なクラゲを展示。アシカショーの施設やヒトデに触れるタッチプールもある。",
      "orderIndex": 6,
      "recognitionRadiusMeters": null,
      "googlePlaceId": "ChIJEeZzlGsXjF8RdxWTWpasRk0"
    },
    {
      "spotId": "aq-jp-008",
      "name": "アクアマリンふくしま",
      "address": "〒971-8101 福島県いわき市小名浜辰巳町５０",
      "latitude": 36.9431029,
      "longitude": 140.901476,
      "spotDescription": "港にある水族館。魚の種類が多く、三角形のトンネルやギフトショップがある。体験型ワークショップも開催。",
      "orderIndex": 7,
      "recognitionRadiusMeters": null,
      "googlePlaceId": "ChIJhz0hkSAOIWARoJsSrjdEJpw"
    },
    {
      "spotId": "aq-jp-009",
      "name": "アクアマリンいなわしろカワセミ水族館",
      "address": "〒969-3283 福島県耶麻郡猪苗代町長田東中丸3447番地4",
      "latitude": 37.5614387,
      "longitude": 140.0745716,
      "spotDescription": null,
      "orderIndex": 8,
      "recognitionRadiusMeters": null,
      "googlePlaceId": "ChIJLad97DGvil8RMiqPaW0dGN8"
    },
    {
      "spotId": "aq-jp-010",
      "name": "新潟市水族館 マリンピア日本海",
      "address": "〒951-8101 新潟県新潟市中央区西船見町５９３２−４４５",
      "latitude": 37.923672,
      "longitude": 139.0280003,
      "spotDescription": "大型水族館。イルカショー、魚のトンネル、ペンギンやアシカも見られる。",
      "orderIndex": 9,
      "recognitionRadiusMeters": null,
      "googlePlaceId": "ChIJgcnOweDJ9F8R3wOwnTD7Sb0"
    },
    {
      "spotId": "aq-jp-011",
      "name": "上越市立水族博物館 うみがたり",
      "address": "〒942-0081 新潟県上越市五智２丁目１５−１５",
      "latitude": 37.1734714,
      "longitude": 138.233013,
      "spotDescription": "イルカのパフォーマンスを楽しめる水族博物館。シロイルカ、ペンギン、多種多様な魚も見ることができる。",
      "orderIndex": 10,
      "recognitionRadiusMeters": null,
      "googlePlaceId": "ChIJERnhuG549l8RvXtmepwiWBM"
    },
    {
      "spotId": "aq-jp-012",
      "name": "長岡市寺泊水族博物館",
      "address": "〒940-2502 新潟県長岡市寺泊花立９３５３−１５８",
      "latitude": 37.6338712,
      "longitude": 138.7603547,
      "spotDescription": "カメや熱帯魚を見られる 2 階建ての水族館。屋外のペンギン広場からは海を一望できる。",
      "orderIndex": 11,
      "recognitionRadiusMeters": null,
      "googlePlaceId": "ChIJUYHs60v69F8RZjUqtxmGl6k"
    },
    {
      "spotId": "aq-jp-013",
      "name": "栃木県なかがわ水遊園",
      "address": "〒324-0404 栃木県大田原市佐良土２６８６",
      "latitude": 36.790613,
      "longitude": 140.128634,
      "spotDescription": "アマゾン川の展示や、子どもたちがヒトデやサメに触れられるタッチング水槽がある大型水族館。",
      "orderIndex": 12,
      "recognitionRadiusMeters": null,
      "googlePlaceId": "ChIJXbztWprQIWARn12O35zP7KQ"
    },
    {
      "spotId": "aq-jp-014",
      "name": "鴨川シーワールド",
      "address": "〒296-0041 千葉県鴨川市東町１４６４−１８",
      "latitude": 35.115895,
      "longitude": 140.1203229,
      "spotDescription": "水族館とスタジアムを併設した海洋テーマパーク。クジラ、イルカ、アシカのショーを開催。",
      "orderIndex": 13,
      "recognitionRadiusMeters": null,
      "googlePlaceId": "ChIJhc6dSJdTPWARF6Kvf3gGDg8"
    },
    {
      "spotId": "aq-jp-015",
      "name": "さいたま水族館",
      "address": "〒348-0011 埼玉県羽生市三田ケ谷７５１−１",
      "latitude": 36.1728026,
      "longitude": 139.597787,
      "spotDescription": "荒川に生息する淡水魚と両生類を中心とした素朴な水族館。",
      "orderIndex": 14,
      "recognitionRadiusMeters": null,
      "googlePlaceId": "ChIJ5TXkrZwzH2ARTUJYQpVUnUo"
    },
    {
      "spotId": "aq-jp-016",
      "name": "サンシャイン水族館",
      "address": "〒170-8630 東京都豊島区東池袋３丁目１−１ サンシャインシティワールドインポートマートビル 屋上",
      "latitude": 35.7289254,
      "longitude": 139.7201573,
      "spotDescription": "さまざまな海の生き物を展示する高層水族館。天空のガラス水槽がある。",
      "orderIndex": 15,
      "recognitionRadiusMeters": null,
      "googlePlaceId": "ChIJhT_wQW-NGGARyeOCR2L-W-I"
    },
    {
      "spotId": "aq-jp-017",
      "name": "葛西臨海水族園",
      "address": "〒134-8587 東京都江戸川区臨海町６丁目２−３",
      "latitude": 35.6398972,
      "longitude": 139.8621737,
      "spotDescription": "広々とした水族館。サメ、トビエイ、ペンギンなど、世界中の海洋生物を飼育。",
      "orderIndex": 16,
      "recognitionRadiusMeters": null,
      "googlePlaceId": "ChIJ65T4s099GGARKhT05Ix6YuI"
    },
    {
      "spotId": "aq-jp-018",
      "name": "しながわ水族館",
      "address": "〒140-0012 東京都品川区勝島３丁目２−１",
      "latitude": 35.588759,
      "longitude": 139.7371158,
      "spotDescription": "トンネル水槽での海洋生物の展示やアニマルショーが楽しめる、自然公園内にある水族館。",
      "orderIndex": 17,
      "recognitionRadiusMeters": null,
      "googlePlaceId": "ChIJswiYns5hGGARwIL8waCJLe0"
    },
    {
      "spotId": "aq-jp-019",
      "name": "マクセル アクアパーク 品川",
      "address": "〒108-8611 東京都港区高輪４丁目１０−３０ 品川プリンスホテル内",
      "latitude": 35.6282839,
      "longitude": 139.7352393,
      "spotDescription": "洗練された水族館と博物館。ライトアップされた水槽、ペンギン、アザラシ、イルカのパフォーマンスを楽しめる。",
      "orderIndex": 18,
      "recognitionRadiusMeters": null,
      "googlePlaceId": "ChIJC1aZZFeKGGARGLX8IHTOn-c"
    },
    {
      "spotId": "aq-jp-020",
      "name": "すみだ水族館",
      "address": "〒131-0045 東京都墨田区押上１丁目１−２ 東京スカイツリータウン・ソラマチ ５階～６階",
      "latitude": 35.7099301,
      "longitude": 139.8095855,
      "spotDescription": "スタイリッシュでモダンな水族館。さまざまな魚やペンギンを飼育し、カフェも併設。",
      "orderIndex": 19,
      "recognitionRadiusMeters": null,
      "googlePlaceId": "ChIJO6bK3daOGGARYEFGg4Xm-VI"
    },
    {
      "spotId": "aq-jp-021",
      "name": "アシカ館（旧 六角ホール）",
      "address": "〒214-0006 神奈川県川崎市多摩区菅仙谷４丁目１",
      "latitude": 35.626358,
      "longitude": 139.5174757,
      "spotDescription": null,
      "orderIndex": 20,
      "recognitionRadiusMeters": null,
      "googlePlaceId": "ChIJ_URKpIj6GGARMBvrLgDN0JY"
    },
    {
      "spotId": "aq-jp-022",
      "name": "カワスイ 川崎水族館",
      "address": "〒210-0024 神奈川県川崎市川崎区日進町１−１１ 9F 10F 川崎 ルフロン",
      "latitude": 35.5295343,
      "longitude": 139.6966885,
      "spotDescription": "地元の多摩川からアマゾンの熱帯雨林まで、水辺をリアルに再現し 200 種以上を紹介。",
      "orderIndex": 21,
      "recognitionRadiusMeters": null,
      "googlePlaceId": "ChIJhcZzAWBhGGARKzzglvIW7so"
    },
    {
      "spotId": "aq-jp-023",
      "name": "横浜・八景島シーパラダイス",
      "address": "〒236-0006 神奈川県横浜市金沢区八景島",
      "latitude": 35.336458,
      "longitude": 139.6452299,
      "spotDescription": "1993 年開園の遊園地。海の動物たちのショーが楽しめる水族館、各種アトラクション、マリーナも併設。",
      "orderIndex": 22,
      "recognitionRadiusMeters": null,
      "googlePlaceId": "ChIJTRC2enlBGGARR82PUNymZUE"
    },
    {
      "spotId": "aq-jp-024",
      "name": "山梨県立富士湧水の里水族館 森の中の水族館",
      "address": "〒401-0511 山梨県南都留郡忍野村忍草３０９８−１",
      "latitude": 35.455605,
      "longitude": 138.8240633,
      "spotDescription": "ドーナツ型の水槽に地元の湖や川に生息する淡水魚を展示する教育センター。",
      "orderIndex": 23,
      "recognitionRadiusMeters": null,
      "googlePlaceId": "ChIJi3Fad5lmGWARvIujaJtmp7A"
    },
    {
      "spotId": "aq-jp-025",
      "name": "東海大学海洋科学博物館",
      "address": "〒424-8620 静岡県静岡市清水区三保２３８９",
      "latitude": 35.0191405,
      "longitude": 138.5182496,
      "spotDescription": "現地の海洋生物を飼育している近代的な水族館と科学博物館。クジラと恐竜の骨も展示している。",
      "orderIndex": 24,
      "recognitionRadiusMeters": null,
      "googlePlaceId": "ChIJX0V50HcxGmAR6et6ni82WqI"
    },
    {
      "spotId": "aq-jp-026",
      "name": "のとじま水族館",
      "address": "〒926-0216 石川県七尾市能登島曲町１５−４０",
      "latitude": 37.1491624,
      "longitude": 136.9822215,
      "spotDescription": "ジンベイザメ、イルカ、アシカなどの海洋生物が見られる人気の水族館。ショーと餌やりも見られる。",
      "orderIndex": 25,
      "recognitionRadiusMeters": null,
      "googlePlaceId": "ChIJud5H4tQl918RkYfWBvfbsac"
    },
    {
      "spotId": "aq-jp-027",
      "name": "碧南海浜水族館",
      "address": "〒447-0853 愛知県碧南市浜町２−３",
      "latitude": 34.880168,
      "longitude": 136.981964,
      "spotDescription": "さまざまな魚、カエル、カメがいる小さな水族館。ワークショップも開催され、飲食店がある。",
      "orderIndex": 26,
      "recognitionRadiusMeters": null,
      "googlePlaceId": "ChIJ_U_QuQGQBGARC5DFcXhVlY0"
    },
    {
      "spotId": "aq-jp-028",
      "name": "名古屋港水族館",
      "address": "〒455-0033 愛知県名古屋市港区港町１−３",
      "latitude": 35.0905088,
      "longitude": 136.8784377,
      "spotDescription": "クジラをはじめ、さまざまな生き物を展示する近代的な水族館。イルカショーを開催し、飲食店もある。",
      "orderIndex": 27,
      "recognitionRadiusMeters": null,
      "googlePlaceId": "ChIJsyTJ06B5A2ARvt6FJ9xiqaE"
    },
    {
      "spotId": "aq-jp-029",
      "name": "名古屋シーライフ水族館 SEA LIFE Nagoya Aquarium",
      "address": "SEA LIFE Nagoya, 1 Kinjoufutou, ２丁目-7 金城ふ頭 港区 名古屋市 愛知県 455-8605",
      "latitude": 35.0503899,
      "longitude": 136.846351,
      "spotDescription": "ガラスのトンネルと体験型キッズエリアを備えた小さな水族館。アカエイ、サメ、クラゲなどを飼育している。",
      "orderIndex": 28,
      "recognitionRadiusMeters": null,
      "googlePlaceId": "ChIJlY1Fp8d4A2AR2pznMiXeuP8"
    },
    {
      "spotId": "aq-jp-030",
      "name": "滋賀県立琵琶湖博物館",
      "address": "〒525-0001 滋賀県草津市下物町１０９１ 駐車場 ディスカバリールーム",
      "latitude": 35.0739541,
      "longitude": 135.934879,
      "spotDescription": "琵琶湖の歴史を学べる博物館。水族展示室があり、化石と動物標本も展示している。",
      "orderIndex": 29,
      "recognitionRadiusMeters": null,
      "googlePlaceId": "ChIJXRxdK4x0AWARsBFMj8YBCd0"
    },
    {
      "spotId": "aq-jp-031",
      "name": "京都水族館",
      "address": "〒600-8835 京都府京都市下京区観喜寺町３５−１ 内 梅小路公園",
      "latitude": 34.987516,
      "longitude": 135.7472123,
      "spotDescription": "This modern aquarium with 9 zones features a giant salamander, penguins & seals, plus a dolphin program.",
      "orderIndex": 30,
      "recognitionRadiusMeters": null,
      "googlePlaceId": "ChIJXdx4CxwGAWARWUbHqiTaF1Q"
    },
    {
      "spotId": "aq-jp-032",
      "name": "鳥羽水族館",
      "address": "〒517-8517 三重県鳥羽市鳥羽３丁目３−６",
      "latitude": 34.4815825,
      "longitude": 136.8456926,
      "spotDescription": "1955 年に開館した大規模な水族館。数千種類もの動物たちがテーマ別に分けられた 12 のゾーンで飼育されている。",
      "orderIndex": 31,
      "recognitionRadiusMeters": null,
      "googlePlaceId": "ChIJVVVANuv1A2ARyCiTNeo9qAs"
    },
    {
      "spotId": "aq-jp-033",
      "name": "伊勢シーパラダイス",
      "address": "〒519-0602 三重県伊勢市二見町江５８０",
      "latitude": 34.5073454,
      "longitude": 136.7915976,
      "spotDescription": "海の生き物に触れ合い、イルカやセイウチのショーが楽しめる水族館。",
      "orderIndex": 32,
      "recognitionRadiusMeters": null,
      "googlePlaceId": "ChIJ7d3jtoZXBGARmYPZ5ZpR59M"
    },
    {
      "spotId": "aq-jp-034",
      "name": "海遊館",
      "address": "〒552-0022 大阪府大阪市港区海岸通１丁目１−１０",
      "latitude": 34.6545182,
      "longitude": 135.4289645,
      "spotDescription": "世界最大級の水族館。北極圏から熱帯までの海洋生物を展示。",
      "orderIndex": 33,
      "recognitionRadiusMeters": null,
      "googlePlaceId": "ChIJzakNjPToAGARzCwIriDFg28"
    },
    {
      "spotId": "aq-jp-035",
      "name": "ニフレル",
      "address": "〒565-0826 大阪府吹田市千里万博公園２−１ ＮＩＦＲＥＬ EXPOCITY内",
      "latitude": 34.8063187,
      "longitude": 135.5336657,
      "spotDescription": "スタイリッシュでモダンな空間に外来種の魚、哺乳類、爬虫類が暮らすファミリー向けのアトラクション。",
      "orderIndex": 34,
      "recognitionRadiusMeters": null,
      "googlePlaceId": "ChIJQ5ZHUK38AGARxxGtklDGX9U"
    },
    {
      "spotId": "aq-jp-036",
      "name": "神戸須磨シーワールド",
      "address": "〒654-0049 兵庫県神戸市須磨区若宮町１丁目３−５",
      "latitude": 34.6438947,
      "longitude": 135.1279256,
      "spotDescription": null,
      "orderIndex": 35,
      "recognitionRadiusMeters": null,
      "googlePlaceId": "ChIJgQxfKgCFAGARDDvvrnSqDw0"
    },
    {
      "spotId": "aq-jp-037",
      "name": "アトア",
      "address": "〒650-0041 兵庫県神戸市中央区新港町７−２ 神戸ポートミュージアム 1F",
      "latitude": 34.6832222,
      "longitude": 135.1936194,
      "spotDescription": null,
      "orderIndex": 36,
      "recognitionRadiusMeters": null,
      "googlePlaceId": "ChIJwaevoL2PAGAR1MG37BLpfo8"
    },
    {
      "spotId": "aq-jp-038",
      "name": "城崎マリンワールド",
      "address": "〒669-6192 兵庫県豊岡市瀬戸1090番地",
      "latitude": 35.6555561,
      "longitude": 134.8246145,
      "spotDescription": "さまざまな海洋生物の展示、ショーエリア、トレーナー ツアーなどが楽しめる人気の水族館。",
      "orderIndex": 37,
      "recognitionRadiusMeters": null,
      "googlePlaceId": "ChIJH8FDRkO2_18RZNSIArj2i88"
    },
    {
      "spotId": "aq-jp-039",
      "name": "姫路市立水族館",
      "address": "〒670-0971 兵庫県姫路市西延末４４０",
      "latitude": 34.8220294,
      "longitude": 134.6761997,
      "spotDescription": "丘の上にある水族館。室内外の展示と、子供が魚に触れられる池がある。",
      "orderIndex": 38,
      "recognitionRadiusMeters": null,
      "googlePlaceId": "ChIJMRVxmVvgVDURC2C19VInfn0"
    },
    {
      "spotId": "aq-jp-040",
      "name": "島根県立しまね海洋館 アクアス",
      "address": "〒697-0004 島根県浜田市久代町１１１７−２",
      "latitude": 34.9594578,
      "longitude": 132.1446342,
      "spotDescription": "シロイルカ、サメなど、400 種を超える海洋生物の見られる水族館。ペンギンの餌やりや海底トンネルもある。",
      "orderIndex": 39,
      "recognitionRadiusMeters": null,
      "googlePlaceId": "ChIJfQ8qpEVbWjURYy3hwrcz_xw"
    },
    {
      "spotId": "aq-jp-041",
      "name": "渋川マリン水族館（玉野海洋博物館）",
      "address": "〒706-0028 岡山県玉野市渋川２丁目６−１",
      "latitude": 34.4548984,
      "longitude": 133.9054393,
      "spotDescription": "瀬戸内海を代表する多数の魚が見られる水槽、アザラシなどの海獣類の実物、貝類標本を展示している。",
      "orderIndex": 40,
      "recognitionRadiusMeters": null,
      "googlePlaceId": "ChIJQcUi3__kUzUR5CdPaptqV2U"
    },
    {
      "spotId": "aq-jp-042",
      "name": "桂浜水族館",
      "address": "〒781-0262 高知県高知市浦戸７７８",
      "latitude": 33.4970941,
      "longitude": 133.573698,
      "spotDescription": "目が赤く光るアカメの水槽、ウナギの水槽、ふれあいプール、ペンギンの展示などが楽しめる小規模な水族館。",
      "orderIndex": 41,
      "recognitionRadiusMeters": null,
      "googlePlaceId": "ChIJWxArWRYaTjURlX4sPd4OxFw"
    },
    {
      "spotId": "aq-jp-043",
      "name": "虹の森公園 おさかな館",
      "address": "〒798-2102 愛媛県北宇和郡松野町延野々１５１０−１ 内 虹の森公園",
      "latitude": 33.2293506,
      "longitude": 132.710337,
      "spotDescription": "四万十川に生息するさまざまな種類の魚のいる水槽。カワウソ餌やりタイム、ペンギンショーもある。",
      "orderIndex": 42,
      "recognitionRadiusMeters": null,
      "googlePlaceId": "ChIJPaGSBn9vTzURTS5UJ4JSeAU"
    },
    {
      "spotId": "aq-jp-044",
      "name": "みやじマリン 宮島水族館",
      "address": "〒739-0588 広島県廿日市市宮島町１０−３",
      "latitude": 34.2954961,
      "longitude": 132.3157922,
      "spotDescription": "親子連れで楽しめるこぢんまりとした水族館。クジラやペンギンが飼育され、アシカのショーも見られる。屋外にはピクニック広場もある。",
      "orderIndex": 43,
      "recognitionRadiusMeters": null,
      "googlePlaceId": "ChIJpbpftsqwWjURD6UNc1rni0A"
    },
    {
      "spotId": "aq-jp-045",
      "name": "マリンワールド海の中道",
      "address": "〒811-0321 福岡県福岡市東区西戸崎１８−２８",
      "latitude": 33.660851,
      "longitude": 130.363413,
      "spotDescription": "多様な海洋生物が展示され、スタジアム プールを備えた都市型水族館。イルカやアシカのショーを開催。",
      "orderIndex": 44,
      "recognitionRadiusMeters": null,
      "googlePlaceId": "ChIJR4tIGrGNQTURRMLEZ9kNOr8"
    },
    {
      "spotId": "aq-jp-046",
      "name": "長崎ペンギン水族館",
      "address": "〒851-0121 長崎県長崎市宿町３−１６",
      "latitude": 32.7581537,
      "longitude": 129.9467149,
      "spotDescription": "180 羽以上のペンギンが暮らす水族館。自然の海をネットと柵で囲ったペンギンビーチやビオトープもあり、カヤック体験もできる。",
      "orderIndex": 45,
      "recognitionRadiusMeters": null,
      "googlePlaceId": "ChIJk2sjlOaqajURPi5soRvA8HU"
    },
    {
      "spotId": "aq-jp-047",
      "name": "大分マリーンパレス水族館「うみたまご」",
      "address": "〒870-0802 大分県大分市神崎3078番地の22",
      "latitude": 33.2587409,
      "longitude": 131.5355634,
      "spotDescription": "海に面した大規模な海洋公園と水族館。イルカやセイウチのショーや、海の生き物に触れられるプログラムを開催。",
      "orderIndex": 46,
      "recognitionRadiusMeters": null,
      "googlePlaceId": "ChIJtWo9JTmhRjURWoOoSdM0xDk"
    },
    {
      "spotId": "aq-jp-048",
      "name": "いおワールドかごしま水族館",
      "address": "〒892-0814 鹿児島県鹿児島市本港新町３−１",
      "latitude": 31.5960577,
      "longitude": 130.5646969,
      "spotDescription": "さまざまな在来種を飼育する水族館。餌やり体験やイルカショーもある。",
      "orderIndex": 47,
      "recognitionRadiusMeters": null,
      "googlePlaceId": "ChIJT98JvRpePjURoAs7WvwOIlg"
    },
    {
      "spotId": "aq-jp-049",
      "name": "沖縄美ら海水族館",
      "address": "〒905-0206 沖縄県国頭郡本部町石川４２４",
      "latitude": 26.694338,
      "longitude": 127.8780131,
      "spotDescription": "サメ、サンゴ、魚、マンタなどを展示する世界最大級の水族館。",
      "orderIndex": 48,
      "recognitionRadiusMeters": null,
      "googlePlaceId": "ChIJPZ5hUjH65DQR_p_dD3CmCOo"
    }
  ]
}
